City_ID,City,Cloudiness,Country,Date,Humidity,Lat,Lng,Max Temp,Wind Speed
2953430,Bad Iburg,99,DE,1631418191,92,52.1549,52.1549,63.52,7.11
2953449,Bad Harzburg,99,DE,1631418436,94,51.8833,51.8833,61.65,5.3
4407010,Saint Joseph,1,US,1631418438,64,39.7686,39.7686,82.26,9.22
1728272,Baleno,100,PH,1631418439,72,12.4739,12.4739,85.06,6.64
988290,Komatipoort,0,ZA,1631418439,81,-25.4332,-25.4332,57.45,4.18
3578421,Saint Martin,75,MF,1631418441,89,18.0667,18.0667,80.74,17.27
2647108,Hengoed,99,GB,1631418442,90,51.6508,51.6508,54.64,4.14
3390295,Rio Formoso,75,BR,1631418443,91,-8.6636,-8.6636,76.96,6.55
2513395,Museros,40,ES,1631418445,92,39.5667,39.5667,74.64,1.99
3531118,Chapulhuacán,62,MX,1631418446,94,21.1667,21.1667,64.24,2.3
2913693,Gundelsheim,24,DE,1631418447,95,49.2844,49.2844,60.75,2.13
3140321,Sandnes,90,NO,1631418448,96,58.8524,58.8524,60.57,6.91
3902377,La Santisima Trinidad,1,BO,1631418450,53,-14.8333,-14.8333,79.11,4.18
3439389,Asunción,0,PY,1631418390,50,-25.3007,-25.3007,76.44,8.05
3101057,Czeladź,7,PL,1631418451,96,50.3154,50.3154,58.21,1.01
2147714,Sydney,0,AU,1631418370,13,-33.8679,-33.8679,89.35,4
4908243,Round Lake Park,1,US,1631418453,72,42.357,42.357,79.29,5.99
2637833,Silsden,97,GB,1631418454,94,53.9144,53.9144,58.6,1.01
789342,Konče,100,MK,1631418455,84,41.4958,41.4958,54.86,2.39
4904381,Oak Park,75,US,1631418456,66,41.885,41.885,79.92,1.99
3406910,Bacabal,10,BR,1631418458,84,-4.2917,-4.2917,77.14,6.33
4835003,Glastonbury,1,US,1631418460,92,41.7123,41.7123,69.82,3.44
5501344,Carson City,1,US,1631418460,44,39.1638,39.1638,77.83,4.61
1040652,Maputo,0,MZ,1631418461,88,-25.9653,-25.9653,60.22,1.99
5127835,Mount Vernon,20,US,1631418463,66,40.9126,40.9126,73.02,11.99
3170019,Povegliano Veronese,7,IT,1631418464,83,45.3495,45.3495,68.47,3.44
5334223,Carlsbad,1,US,1631418465,77,33.1581,33.1581,84.69,6.91
6547296,Agourai,8,MA,1631418466,40,33.6438,33.6438,62.85,3.31
3836277,Santa Fe,92,AR,1631418467,75,-31.6333,-31.6333,63,7
6452038,Villejuif,0,FR,1631418469,84,48.8,48.8,58.84,2.3
3516683,Seyé,98,MX,1631418470,97,20.8333,20.8333,79.97,5.84
2747373,The Hague,90,NL,1631418472,90,52.0767,52.0767,60.94,4
5105300,Tenafly,1,US,1631418473,70,40.9254,40.9254,72.88,4.61
3045303,Solt,0,HU,1631418474,45,46.8007,46.8007,54.99,2.48
5746545,Portland,76,US,1631418475,62,45.5234,45.5234,73.98,3
3450843,Rubiataba,5,BR,1631418476,24,-15.1644,-15.1644,80.01,1.19
1729195,Bagamanoc,100,PH,1631418478,60,13.941,13.941,88.7,6.04
4154568,Estero,1,US,1631418478,80,26.4381,26.4381,80.58,5.75
3448117,São Vicente de Minas,48,BR,1631418479,92,-21.7125,-21.7125,60.75,2.55
2986294,Pont-Audemer,100,FR,1631418481,93,49.35,49.35,59.92,3.69
2476660,Tigzirt,5,DZ,1631418483,55,36.8886,36.8886,74.34,7.05
1591538,Bac Kan,53,VN,1631418414,50,22.1333,22.1333,95.67,0.76
650095,Kurikka,100,FI,1631418485,99,62.6167,62.6167,55.22,3.53
694025,Shyroke,100,UA,1631418486,42,47.6917,47.6917,56.44,5.66
5244080,Appleton,94,US,1631418487,77,44.2619,44.2619,73.4,8.34
2647297,Hawick,100,GB,1631418489,87,55.4227,55.4227,50.58,2.86
1788816,Xinji,38,CN,1631418490,64,37.9028,37.9028,82.74,5.32
4568451,Trujillo Alto,20,PR,1631418491,91,18.3547,18.3547,82.49,0
545690,Komsomol'skoye,91,RU,1631418491,66,55.2567,55.2567,50.54,6.4
533143,Luza,52,RU,1631418493,91,60.6308,60.6308,41.05,3.44
3175384,Ivrea,7,IT,1631418494,74,45.4672,45.4672,69.04,4.79
3175367,Labico,1,IT,1631418495,61,41.7895,41.7895,66.88,1.01
552951,Karabulak,92,RU,1631418497,84,43.3036,43.3036,61.79,1.32
2634776,Wareham,93,GB,1631418498,91,50.6889,50.6889,54.37,5.01
2525425,Campobello di Mazara,0,IT,1631418500,83,37.6358,37.6358,72.36,8.48
5178280,Ancient Oaks,1,US,1631418501,87,40.5473,40.5473,67.59,1.01
5341430,Daly City,20,US,1631418502,90,37.7058,37.7058,70.65,10
3166287,Spello,2,IT,1631418503,90,42.9942,42.9942,67.01,5.75
538836,Kurganinsk,12,RU,1631418411,83,44.88,44.88,60.62,1.43
2653305,Chatham,81,GB,1631418505,86,51.3789,51.3789,57.79,4.72
3021381,Arrondissement de Digne-les-Bains,6,FR,1631418506,68,44.0833,44.0833,57.92,4.34
2953374,Bad Rappenau,27,DE,1631418508,95,49.2406,49.2406,59.88,2.06
5815759,White Center,90,US,1631418509,72,47.5173,47.5173,67.15,3.44
6050650,Lavaltrie,78,CA,1631418510,60,45.8834,45.8834,68.77,10.36
2636432,Skewen,100,GB,1631418511,92,51.6571,51.6571,57.31,1.99
2654141,Buxton,98,GB,1631418512,92,53.2574,53.2574,56.28,4.25
1254953,Tanuku,100,IN,1631418333,92,16.75,16.75,84.56,8.88
4410836,Sunset Hills,6,US,1631418514,75,38.5389,38.5389,78.35,1.01
1693394,Limbuhan,100,PH,1631418515,70,11.8838,11.8838,85.24,7.27
2853292,Plauen,100,DE,1631418515,91,50.5,50.5,61.25,1.01
5543307,Moab,91,US,1631418517,41,38.5733,38.5733,80.65,1.01
3080074,Złotoryja,37,PL,1631418518,95,51.1264,51.1264,60.37,5.06
2416440,Pita,100,GN,1631418519,98,10.8333,10.8333,70.77,0.27
2643726,Long Ashton,40,GB,1631418520,89,51.43,51.43,56.32,1.99
3164954,Valdagno,7,IT,1631418522,70,45.6483,45.6483,62.51,1.01
2520727,Bullas,0,ES,1631418523,60,38.0467,38.0467,64.17,1.54
2510692,Talavera La Real,3,ES,1631418524,72,38.8779,38.8779,72.05,2.64
258543,Lávrio,18,GR,1631418526,53,37.7145,37.7145,74.73,8.46
461964,Zuyevka,42,RU,1631418527,80,58.405,58.405,44.56,6.8
2659994,Lausanne,9,CH,1631418528,88,46.516,46.516,62.53,3.02
3061344,Znojmo,59,CZ,1631418530,83,48.8555,48.8555,61.11,2.39
4793846,Williamsburg,1,US,1631418531,85,37.2707,37.2707,69.75,5.75
3465661,Congonhinhas,41,BR,1631418532,79,-23.5511,-23.5511,63.82,3.51
4635031,La Vergne,1,US,1631418534,87,36.0156,36.0156,71.02,3.44
3461341,Inácio Martins,70,BR,1631418535,96,-25.5167,-25.5167,56.97,1.81
3164179,Villanova Mondovì,6,IT,1631418536,71,44.3469,44.3469,66.52,3.27
124620,Masjed Soleymān,0,IR,1631418537,13,31.9364,31.9364,92.28,2.1
5576882,Estes Park,65,US,1631418539,47,40.3772,40.3772,68.04,1.01
1266366,Kohima,79,IN,1631418540,48,25.6667,25.6667,72.37,1.12
3523141,Colipa,94,MX,1631418540,88,19.9233,19.9233,72.88,6.02
3664243,Feijó,65,BR,1631418541,79,-8.1642,-8.1642,75.94,1.88
4838652,Milford,1,US,1631418542,81,41.2223,41.2223,73.44,1.01
1606040,Sung Noen,100,TH,1631418543,77,14.8992,14.8992,80.74,13.18
4501306,Collingswood,20,US,1631418544,78,39.9182,39.9182,69.71,1.01
3166399,Soncino,2,IT,1631418544,79,45.4001,45.4001,69.82,2.21
4893392,Galesburg,95,US,1631418546,76,40.9478,40.9478,78.12,4
2895284,Jahnsdorf,92,DE,1631418547,92,50.75,50.75,60.19,4.16
3178874,Chianciano Terme,4,IT,1631418548,77,43.0439,43.0439,60.35,1.95
4559077,Lansdowne,20,US,1631418549,76,39.9382,39.9382,69.42,6.91
3448828,São Joaquim,1,BR,1631418550,87,-28.2939,-28.2939,45.73,3.33
3985797,San Julián,42,MX,1631418552,81,21.0167,21.0167,55.42,6.42
3453712,Pintadas,1,BR,1631418553,95,-11.8125,-11.8125,67.1,5.88
1213547,Tanjungbalai,100,ID,1631418539,91,2.9667,2.9667,78.1,3.98
2065594,Mount Isa,37,AU,1631418555,13,-20.7333,-20.7333,92.97,10.36
2836390,Schöppingen,100,DE,1631418556,92,52.1,52.1,62.22,8.48
3467908,Campestre,65,BR,1631418557,81,-21.7111,-21.7111,62.53,3.33
4781708,Richmond,1,US,1631418559,84,37.5538,37.5538,68.29,5.75
2892080,Kaufbeuren,13,DE,1631418560,100,47.8833,47.8833,56.17,2.3
5146256,Austintown,75,US,1631418561,76,41.1017,41.1017,71.29,1.01
1791673,Weihai,28,CN,1631418562,87,37.5017,37.5017,75.38,13.78
3430946,Maipú,100,AR,1631418562,96,-36.8627,-36.8627,52.43,13.2
3441481,Nueva Palmira,100,UY,1631418564,85,-33.8833,-33.8833,57.07,12.62
3461628,Ibaiti,53,BR,1631418565,85,-23.8486,-23.8486,60.26,3.24
463217,Zherdevka,100,RU,1631418567,76,51.8486,51.8486,63.01,4.07
721428,Derecske,27,HU,1631418568,87,47.35,47.35,55.85,0
2123614,Makarov,100,RU,1631418569,84,48.6333,48.6333,55.8,19.39
1723481,Buenavista,100,PH,1631418570,76,8.9769,8.9769,81.73,7.23
1727326,Bangar,100,PH,1631418570,84,16.8936,16.8936,81.57,8.39
5392967,Santa Barbara,1,US,1631418570,84,34.7333,34.7333,67.82,0
3036359,Aubignan,0,FR,1631418571,79,44.0994,44.0994,62.92,3.44
5281166,Castleton,4,US,1631418572,90,43.6106,43.6106,64.72,6.35
2870482,Mittenwald,5,DE,1631418573,97,47.4422,47.4422,53.26,3.53
2794064,Kortessem,74,BE,1631418575,88,50.8579,50.8579,58.64,5.93
707292,Izium,77,UA,1631418576,55,49.1914,49.1914,60.94,5.06
1861416,Ishigaki,75,JP,1631418291,83,24.3448,24.3448,82.53,32.21
6697994,Targoviste,2,RO,1631418578,97,44.9214,44.9214,57.02,4.68
3172614,Morciano di Romagna,49,IT,1631418579,73,43.9141,43.9141,66.7,3.44
2982851,Roquemaure,0,FR,1631418580,78,44.0494,44.0494,63.45,3.44
616330,Odzun,98,AM,1631418582,75,41.0532,41.0532,59.25,1.16
3029973,Arrondissement de Brive-la-Gaillarde,77,FR,1631418583,58,45.25,45.25,55.83,2.24
3517993,San Pedro Ixcatlán,100,MX,1631418585,88,18.15,18.15,76.15,4.09
3180937,Camponogara,6,IT,1631418586,88,45.385,45.385,65.88,3.96
6176823,Waterloo,90,CA,1631418587,68,43.4668,43.4668,72.28,14.97
2876144,Lohra,65,DE,1631418588,94,50.7333,50.7333,59.34,2.8
5799587,Kenmore,90,US,1631418589,76,47.7573,47.7573,69.03,3
758282,Stary Sącz,18,PL,1631418590,70,49.5636,49.5636,62.83,3.47
4235193,Carbondale,1,US,1631418591,75,37.7273,37.7273,73.83,9.22
664539,Tufeşti,0,RO,1631418593,49,45.05,45.05,60.22,7.63
4955993,Winthrop,0,US,1631418594,81,42.3751,42.3751,66.45,4
2649083,Freckleton,100,GB,1631418595,3,53.7543,53.7543,60.82,7.07
4535389,Duncan,1,US,1631418597,54,34.5023,34.5023,76.89,8.05
6537803,Aci Sant'Antonio,40,IT,1631418598,86,37.6062,37.6062,69.01,5.75
3391895,Pirpirituba,62,BR,1631418599,88,-6.78,-6.78,71.73,5.48
519447,Novaya Usman',100,RU,1631418600,69,51.6418,51.6418,61.41,4.12
3021372,Dijon,0,FR,1631418602,94,47.3167,47.3167,55.31,5.75
2994497,Menton,6,FR,1631418603,70,43.7765,43.7765,72.54,4.16
2520955,Bigastro,0,ES,1631418604,85,38.0624,38.0624,73.92,1.01
2950159,Berlin,0,DE,1631418575,93,52.5244,52.5244,62.94,4
2034834,Shuangcheng,0,CN,1631418606,59,45.35,45.35,64.08,5.14
522945,Neftegorsk,7,RU,1631418606,57,52.802,52.802,52.18,5.99
3011988,Juvisy-sur-Orge,0,FR,1631418608,85,48.6833,48.6833,59.54,2.3
2644667,Evington,99,GB,1631418609,90,52.6215,52.6215,58.21,4.9
1655199,Thakhek,100,LA,1631418610,68,17.4103,17.4103,86.11,3.76
2660086,Küttigen,7,CH,1631418610,93,47.4167,47.4167,60.28,1.23
2639265,Rochford,0,GB,1631418612,85,51.582,51.582,58.84,3.44
3981885,Tequila,53,MX,1631418613,73,20.8833,20.8833,67.62,2.91
3385088,Vigia,7,BR,1631418614,88,-0.8583,-0.8583,77.05,8.86
2812655,Weikersheim,90,DE,1631418616,100,49.4806,49.4806,59.83,3.44
4012593,Creel,4,MX,1631418617,56,27.75,27.75,55.11,6.11
1798403,Qabqa,48,CN,1631418618,41,36.2814,36.2814,67.15,9.51
2610343,Vestmanna,75,FO,1631418618,100,62.1564,62.1564,49.12,1.14
2934635,Dummerstorf,75,DE,1631418620,94,54.0167,54.0167,63.63,5.75
1259686,Pīlibhīt,94,IN,1631418621,81,28.6333,28.6333,82,6.44
6184365,Woodstock,68,CA,1631418621,78,43.1334,43.1334,72.63,18.72
4075977,Midfield,1,US,1631418622,82,33.4615,33.4615,73.76,4.61
3169213,Robbiate,6,IT,1631418623,77,45.6915,45.6915,67.62,1.99
2538099,Ghouazi,26,MA,1631418624,54,34.4774,34.4774,72.07,0.74
2518794,Dos Hermanas,20,ES,1631418626,85,37.2829,37.2829,71.65,1.99
2633399,Yaxley,99,GB,1631418627,80,52.5177,52.5177,57.85,4.65
1683881,Talisay City,75,PH,1631418628,66,10.2447,10.2447,87.82,3.44
2637298,Southwater,0,GB,1631418628,66,51.0237,51.0237,56.75,3.44
3435375,Ciudad Evita,75,AR,1631418630,90,-34.723,-34.723,59.05,16.11
3456111,Nova Trento,66,BR,1631418632,95,-27.2858,-27.2858,65.91,0.63
3583065,Tacuba,100,SV,1631418633,93,13.9011,13.9011,69.44,3.18
1807361,Huanglongsi,0,CN,1631418634,63,34.7442,34.7442,86.9,4.99
3393264,Palmares,72,BR,1631418635,98,-8.6833,-8.6833,70.07,3.53
2995563,Maromme,20,FR,1631418636,100,49.4793,49.4793,58.6,0
4938757,Hampshire,1,US,1631418638,92,42.3334,42.3334,64.81,4.61
2505572,Tazoult,2,DZ,1631418639,61,35.486,35.486,56.59,1.41
4074277,Madison,1,US,1631418640,86,34.7334,34.7334,70.74,3.44
2886242,Cologne,40,DE,1631418641,93,50.9333,50.9333,61.2,2.3
4847226,Asbury,1,US,1631418643,76,42.5144,42.5144,75.78,1.01
4204230,La Grange,1,US,1631418644,94,33.0393,33.0393,71.53,0
3195883,Makole,24,SI,1631418645,89,46.3172,46.3172,57.45,2.3
2644726,Leatherhead,0,GB,1631418646,89,51.2959,51.2959,56.62,3.44
3455061,Paranapanema,60,BR,1631418648,71,-23.3886,-23.3886,66.25,4.85
2953197,Baiersbronn,10,DE,1631418650,94,48.5,48.5,50.09,0.69
2968771,Villefontaine,0,FR,1631418651,94,45.6125,45.6125,59.95,1.14
5133668,Rensselaer,16,US,1631418652,82,42.7168,42.7168,59.7,7.45
1712600,Gubat,99,PH,1631418653,68,12.9206,12.9206,86.38,7.49
3181550,Brixen,60,IT,1631418654,92,46.715,46.715,59.18,2.57
3595069,Jutiapa,100,GT,1631418655,97,14.2833,14.2833,67.5,1.7
1509852,Bogotol,100,RU,1631418656,75,56.2078,56.2078,55.53,14.5
1607617,Ban Hua Saphan,100,TH,1631418658,73,15.8753,15.8753,84.07,10.63
5502015,Cold Springs,1,US,1631418658,36,39.6802,39.6802,76.48,9.22
2744118,Zaandam,75,NL,1631418659,93,52.4385,52.4385,61,3
3467538,Candiota,4,BR,1631418661,99,-31.5581,-31.5581,53.19,10.11
2066066,Mitcham,75,AU,1631418662,71,-34.9833,-34.9833,51.3,8.99
726727,Strazhitsa,8,BG,1631418663,49,43.2333,43.2333,46.2,0.27
5197673,Lehighton,1,US,1631418664,89,40.8337,40.8337,64.76,1.01
3396786,Lagoa do Carro,37,BR,1631418665,96,-7.8447,-7.8447,75.52,2.57
89824,Umm Qaşr,0,IQ,1631418667,24,30.0405,30.0405,80.47,11.79
2929649,Ergoldsbach,21,DE,1631418668,95,48.6833,48.6833,57.56,4
3460174,Janaúba,1,BR,1631418669,33,-15.8025,-15.8025,73.2,5.75
1690039,San Fernando,100,PH,1631418599,92,15.0286,15.0286,80.69,4.76
6357155,Pedro Muñoz,2,ES,1631418672,47,39.4041,39.4041,67.42,4.52
2034786,Shuangyashan,100,CN,1631418457,82,46.6361,46.6361,57.63,7.02
5039675,Northfield,1,US,1631418673,69,44.4583,44.4583,69.48,4.61
3157799,Farsund,99,NO,1631418674,91,58.0948,58.0948,60.94,12.17
3189166,Temerin,0,RS,1631418675,45,45.4086,45.4086,62.22,1.68
2950882,Berching,54,DE,1631418677,99,49.1044,49.1044,59.9,2.01
2037658,Dongfeng,42,CN,1631418678,57,42.6403,42.6403,63.46,5.57
133595,Evaz,0,IR,1631418678,28,27.7625,27.7625,71.46,2.75
3516050,Temascalapa,88,MX,1631418680,86,19.8333,19.8333,55.17,5.66
184745,Nairobi,75,KE,1631418681,85,-1.2833,-1.2833,58.96,0
5106877,Alden,22,US,1631418682,66,42.9001,42.9001,72.39,1.99
673441,Miercurea-Ciuc,53,RO,1631418451,66,46.35,46.35,50.4,2.77
4947607,Plymouth,1,US,1631418510,82,41.8334,41.8334,68.72,5.75
1804775,Lanyi,17,CN,1631418684,31,38.7198,38.7198,77.54,13.82
1816670,Beijing,100,CN,1631418621,91,39.9075,39.9075,75.09,4.83
2945051,Bräunlingen,27,DE,1631418684,76,47.9333,47.9333,55.94,1.25
6445065,Saint-Zacharie,8,FR,1631418685,68,43.3833,43.3833,66.27,3.65
3446866,Tapiramutá,14,BR,1631418687,99,-11.8472,-11.8472,60.51,4.5
1268295,Kalyān,100,IN,1631418491,85,19.25,19.25,82.35,9.69
5854189,Waianae,20,US,1631418688,51,21.4434,21.4434,85.95,9.22
3671916,Popayán,95,CO,1631418690,93,2.4382,2.4382,57.42,3.24
2374588,Buba,100,GW,1631418691,95,11.5833,11.5833,74.55,2.73
2989877,Noyon,95,FR,1631418693,87,49.5833,49.5833,56.8,3.04
924055,Salima,20,MW,1631418694,67,-13.7804,-13.7804,68.31,10.63
5197085,Lancaster,1,US,1631418696,85,40.2504,40.2504,66.27,5.75
2915511,Großheubach,15,DE,1631418697,95,49.7272,49.7272,61.03,1.01
1272842,Dharmavaram,64,IN,1631418698,56,14.4333,14.4333,83.93,22.41
3402229,Chapadinha,35,BR,1631418698,90,-3.7417,-3.7417,75.24,4.27
6541409,Marcianise,0,IT,1631418700,68,41.0322,41.0322,71.65,1.14
3175772,Grottaminarda,8,IT,1631418701,81,41.0697,41.0697,66.58,2.19
2535477,Sidi Bousber,18,MA,1631418702,55,34.5628,34.5628,70.68,0.92
2457161,Gao,73,ML,1631418704,29,16.6362,16.6362,90.36,5.14
5333282,Cameron Park,36,US,1631418705,45,38.6688,38.6688,80.83,3.71
4236895,Decatur,1,US,1631418706,73,39.8403,39.8403,76.75,16.11
3172941,Montefalco,1,IT,1631418707,76,42.8908,42.8908,64.4,3.53
3059796,Ilava,6,SK,1631418709,72,48.9977,48.9977,57.63,3.09
2945358,Brandenburg,99,DE,1631418710,95,52.4167,52.4167,62.87,6.98
6940394,Fujimino,100,JP,1631418711,69,35.8763,35.8763,80.26,3.47
360761,Al Mansurah,0,EG,1631418712,83,31.0364,31.0364,67.12,3.85
5777224,Lehi,70,US,1631418713,59,40.3916,40.3916,69.85,1.01
6109273,Ponoka,33,CA,1631418714,94,52.6768,52.6768,56.05,10.25
1785003,Zhangjiazhuang,0,CN,1631418715,41,39.2633,39.2633,79.86,11.7
5131638,Plainview,1,US,1631418715,80,40.7765,40.7765,71.08,12.66
567006,Davlekanovo,100,RU,1631418716,55,54.2215,54.2215,42.82,9.71
3397893,Itacoatiara,45,BR,1631418717,81,-3.1431,-3.1431,75.65,1.61
3588491,Taxisco,100,GT,1631418719,91,14.0708,14.0708,79.14,3.09
2077454,Australind,2,AU,1631418720,50,-33.2667,-33.2667,59.05,5.23
2792034,Lubbeek,81,BE,1631418720,91,50.8828,50.8828,56.34,6.91
3060219,Galanta,23,SK,1631418722,58,48.19,48.19,58.15,4.59
2823360,Teublitz,75,DE,1631418724,94,49.2231,49.2231,57.81,0
2278889,Barclayville,100,LR,1631418725,88,4.6797,4.6797,77.36,4.16
3205535,Höhenkirchen-Siegertsbrunn,5,DE,1631418727,95,48.0193,48.0193,55.81,2.51
3689570,Arjona,83,CO,1631418728,88,10.2544,10.2544,81.66,3.51
5053485,Wright,1,US,1631418729,61,45.1833,45.1833,69.1,4
4423395,D'Iberville,1,US,1631418730,88,30.4263,30.4263,75.25,4.61
4939549,Hingham,0,US,1631418731,87,42.2418,42.2418,67.05,1.99
3451383,Ribeira do Pombal,72,BR,1631418732,99,-10.8344,-10.8344,66.61,3.56
2641598,Newport,90,GB,1631418734,90,51.5877,51.5877,56.68,3.85
4167003,Opa-locka,1,US,1631418735,71,25.9023,25.9023,84.99,4.61
5019767,Burnsville,75,US,1631418736,65,44.7677,44.7677,69.26,1.01
2529313,Taza,7,MA,1631418737,39,34.25,34.25,73.83,0.81
2952633,Bargteheide,100,DE,1631418739,95,53.7333,53.7333,63.91,1.01
691497,Tlumach,100,UA,1631418740,64,48.864,48.864,55.33,1.32
3982548,Tancítaro,67,MX,1631418742,84,19.3333,19.3333,56.46,4.05
4005492,Guadalupe,1,MX,1631418743,64,25.6833,25.6833,83.35,9.22
2284647,Man,98,CI,1631418737,96,7.4125,7.4125,69.46,2.37
2878351,Leun,71,DE,1631418745,97,50.5513,50.5513,60.06,2.37
5327684,Berkeley,20,US,1631418746,82,37.8716,37.8716,72.09,1.99
3166374,Sorbolo,1,IT,1631418748,70,44.8482,44.8482,66.96,0.78
731882,Dryanovo,7,BG,1631418749,47,42.979,42.979,53.83,3.29
1691906,Ramos,100,PH,1631418750,96,15.6833,15.6833,77.11,8.08
5022134,Cottage Grove,1,US,1631418751,64,44.8277,44.8277,69.76,4.61
644450,Nokia,90,FI,1631418752,98,61.4667,61.4667,57.56,6.91
3175494,Inveruno,0,IT,1631418753,85,45.5108,45.5108,68.94,6.91
6362287,Tordesillas,16,ES,1631418754,52,41.5103,41.5103,53.55,5.14
689736,Vesele,100,UA,1631418755,40,47.0148,47.0148,64.58,5.86
3023955,Condé-sur-l'Escaut,51,FR,1631418757,97,50.4544,50.4544,56.89,6.67
4462716,Cumberland,1,US,1631418759,84,35.0502,35.0502,69.28,0
5356576,Hesperia,0,US,1631418760,35,34.4264,34.4264,79.74,11.01
3033685,Bellegarde-sur-Valserine,17,FR,1631418761,97,46.1079,46.1079,56.44,2.37
2863401,Niedergörsdorf,99,DE,1631418762,97,51.9833,51.9833,62.31,6.02
6539671,Albenga,0,IT,1631418763,69,44.0529,44.0529,73.65,3
2647383,Harwich,98,GB,1631418764,83,51.9419,51.9419,59,4
3929631,San Isidro,90,PE,1631418766,93,-12.1167,-12.1167,58.59,13.8
3671540,Puerto Berrío,99,CO,1631418767,93,6.4916,6.4916,75.96,1.16
2743698,Lekkerkerk,90,NL,1631418769,91,51.8969,51.8969,61.02,1.01
2317285,Basankusu,94,CD,1631418770,100,1.221,1.221,68.41,3.24
3860199,Coronel Dorrego,100,AR,1631418772,82,-38.7187,-38.7187,56.75,22.35
2562744,Mellieħa,20,MT,1631418773,76,35.9564,35.9564,74.77,10.36
656789,Ikaalinen,100,FI,1631418775,99,61.7695,61.7695,57.78,4.29
1269771,Imphal,84,IN,1631418773,64,24.8167,24.8167,83.26,2.33
4335963,Old Jefferson,26,US,1631418777,84,30.3827,30.3827,73.92,5.39
1560349,Yen Bai,70,VN,1631418778,57,21.7,21.7,91.92,1.99
5351515,Garden Grove,1,US,1631418779,58,33.7739,33.7739,90.75,1.99
3391360,Santana,0,BR,1631418779,83,-0.0583,-0.0583,82.58,6.91
2836413,Schopfheim,4,DE,1631418781,91,47.6511,47.6511,59.77,1.77
1706801,Leyte,100,PH,1631418782,68,11.3697,11.3697,87.51,2.91
3018778,Feignies,51,FR,1631418783,93,50.2981,50.2981,55.31,6.46
2922582,Garching bei München,12,DE,1631418784,97,48.25,48.25,56.97,3.44
1506260,Gornyak,100,RU,1631418785,86,50.9942,50.9942,51.1,9.48
2894855,Jockgrim,19,DE,1631418786,90,49.0989,49.0989,59.23,2.77
6541794,Giaveno,24,IT,1631418695,68,45.047,45.047,66.72,1.99
612126,Samtredia,90,GE,1631418787,100,42.1537,42.1537,66.47,3.44
1058381,Morondava,0,MG,1631418789,55,-20.2833,-20.2833,71.69,11.5
4161178,Lake Butler,100,US,1631418790,84,28.5017,28.5017,78.69,3
2655329,Bloxwich,89,GB,1631418791,84,52.6181,52.6181,57.24,1.99
4634946,Knoxville,1,US,1631418674,87,35.9606,35.9606,68.2,0
4509884,Dayton,1,US,1631418634,72,39.7589,39.7589,74.32,5.01
2659703,Meilen,75,CH,1631418793,91,47.2723,47.2723,60.42,1.14
2644419,Liphook,76,GB,1631418795,85,51.0772,51.0772,55.54,4.25
1261481,New Delhi,75,IN,1631418738,94,28.6128,28.6128,80.76,5.75
3622895,Matina,100,CR,1631418796,92,10.0761,10.0761,76.53,3.56
4527879,Wellston,5,US,1631418797,81,39.1234,39.1234,71.08,7.61
1256237,Shimla,100,IN,1631418609,78,31.1,31.1,62.2,2.57
6052861,Magdalen Islands,49,CA,1631418798,82,47.4001,47.4001,58.78,10.36
3839479,Rafaela,97,AR,1631418799,55,-31.2503,-31.2503,63,8.01
3623486,Heredia,75,CR,1631418801,81,10,10,68.77,1.01
3176285,Gassino Torinese,0,IT,1631418802,75,45.1316,45.1316,70.45,2.3
2466698,Agareb,20,TN,1631418803,64,34.7424,34.7424,74.52,4.61
672016,Ocniţa,2,RO,1631418804,97,44.9833,44.9833,61.48,4.79
4355843,Gaithersburg,1,US,1631418806,85,39.1434,39.1434,69.82,5.75
3520874,Rafael Lucio,92,MX,1631418807,94,19.5833,19.5833,57.13,5.48
1691184,Sagada,100,PH,1631418807,78,17.084,17.084,69.58,3.78
5048361,Spring Lake Park,1,US,1631418808,65,45.1077,45.1077,69.51,5.75
702417,Vilshany,95,UA,1631418809,57,50.0527,50.0527,57.49,4.92
5129433,Nyack,1,US,1631418810,71,41.0906,41.0906,71.6,1.99
2980339,Arrondissement de Saintes,82,FR,1631418812,71,45.6667,45.6667,58.69,7.4
361058,Alexandria,40,EG,1631418702,69,31.2156,31.2156,75.16,6.91
2650967,Dronfield,97,GB,1631418813,82,53.3022,53.3022,58.1,3
490068,Sovetsk,78,RU,1631418814,98,55.0839,55.0839,58.96,5.3
3333158,Boxley,75,GB,1631418816,88,51.3016,51.3016,57.38,4.36
932993,Tsau,0,BW,1631418817,43,-20.15,-20.15,56.57,7.4
4501019,Camden,0,US,1631418525,84,39.7835,39.7835,69.75,1.01
3456412,Monte Belo,56,BR,1631418819,80,-21.3225,-21.3225,64.02,4.14
3455580,Padre Bernardo,1,BR,1631418821,25,-15.35,-15.35,76.23,3.4
6173017,Val-d'Or,75,CA,1631418822,94,48.1002,48.1002,59.09,8.05
5338929,Commerce,0,US,1631418824,56,34.0006,34.0006,89.83,4.41
359212,Banī Mazār,0,EG,1631418825,73,28.5036,28.5036,70.74,7.52
1276058,Bhātpāra,49,IN,1631418826,73,22.8714,22.8714,89.51,17.54
5942913,Dryden,90,CA,1631418827,81,49.7833,49.7833,50.29,6.91
4989133,Charter Township of Clinton,40,US,1631418828,73,42.587,42.587,75.52,12.66
3468234,Caiapônia,64,BR,1631418829,34,-16.9567,-16.9567,75.9,1.86
636608,Siuntio,100,FI,1631418831,93,60.1386,60.1386,56.91,4.41
5786899,Bellingham,100,US,1631418832,89,48.7595,48.7595,61.75,1.99
3532878,San Pedro Amuzgos,78,MX,1631418834,97,16.65,16.65,69.31,1.68
3457861,Maracajá,32,BR,1631418834,94,-28.8467,-28.8467,60.8,2.89
2176495,Beaudesert,0,AU,1631418836,41,-27.9833,-27.9833,84,8.3
2469140,Masakin,0,TN,1631418837,78,35.7292,35.7292,74.66,11.5
2324767,Potiskum,100,NG,1631418838,80,11.7091,11.7091,76.03,9.08
5127315,Monsey,3,US,1631418839,85,41.1112,41.1112,69.73,5.3
2846286,Röbel,100,DE,1631418840,98,53.3755,53.3755,62.26,1.99
2659298,Ollon,0,CH,1631418842,90,46.2952,46.2952,62.76,3.18
292968,Abu Dhabi,43,AE,1631418843,89,24.4667,24.4667,89.62,8.05
7259777,Fort Rucker,75,US,1631418844,97,31.3428,31.3428,76.87,0
5409941,Wilton,1,US,1631418845,44,38.4119,38.4119,84.54,4
3037521,Annezin,70,FR,1631418846,95,50.5319,50.5319,58.71,6.8
2861817,Nörten-Hardenberg,97,DE,1631418847,91,51.6288,51.6288,61.29,3.94
1688590,San Ricardo,100,PH,1631418849,95,15.5959,15.5959,76.8,6.06
115019,Shiraz,0,IR,1631418702,26,29.6036,29.6036,71.04,6.91
2642135,Motherwell,100,GB,1631418850,88,55.7892,55.7892,52.7,1.99
496285,Severodvinsk,35,RU,1631418851,80,64.5635,64.5635,28.51,3.98
3670756,Teorama,100,CO,1631418852,98,8.4373,8.4373,64.69,2.51
3220858,Laaber,75,DE,1631418853,94,49.0667,49.0667,57.85,0
3047646,Nagykovácsi,0,HU,1631418855,48,47.65,47.65,55.35,3.13
1796663,Sanming,48,CN,1631418858,56,26.2486,26.2486,91.22,6.87
3064104,Třebíč,0,CZ,1631418858,89,49.2149,49.2149,59.61,5.75
5129915,Blooming Grove,1,US,1631418859,86,41.4093,41.4093,66.07,4.61
4477893,Manteo,1,US,1631418860,71,35.9082,35.9082,73,5.75
5168063,Richmond Heights,1,US,1631418861,71,41.5528,41.5528,72.82,1.99
248816,Hashemite Kingdom of Jordan,0,JO,1631418862,90,31,31,60.24,5.84
1260577,Pānchgani,100,IN,1631418863,96,17.9167,17.9167,64.9,6.22
3472433,Rio Espera,77,BR,1631418864,93,-20.8572,-20.8572,64.31,5.03
1699492,Gingoog,100,PH,1631418865,70,8.8243,8.8243,83.95,2.26
479687,Uchkeken,86,RU,1631418865,87,43.9378,43.9378,51.49,1.59
2744826,Gemeente Werkendam,65,NL,1631418867,86,51.8,51.8,60.98,7.72
3469374,Bom Sucesso,60,BR,1631418869,75,-21.0331,-21.0331,65.89,7.78
3470044,Betim,55,BR,1631418870,57,-19.9678,-19.9678,74.84,4.52
5036588,Maplewood,1,US,1631418872,64,44.953,44.953,69.19,4.61
2653188,Chickerell,97,GB,1631418873,92,50.6243,50.6243,54.99,6.08
2517750,Felanitx,2,ES,1631418874,79,39.4696,39.4696,72.14,2.3
3104979,Villarejo de Salvanés,7,ES,1631418876,52,40.1666,40.1666,65.39,3.8
2655952,Bellshill,100,GB,1631418877,88,55.8167,55.8167,52.75,1.99
4952468,Swampscott,0,US,1631418878,80,42.4709,42.4709,65.95,3
3181165,Calusco d'Adda,0,IT,1631418879,76,45.6914,45.6914,67.59,4.61
4469146,Greensboro,0,US,1631418881,74,36.0726,36.0726,66.18,1.01
5771826,Bountiful,67,US,1631418882,55,40.8894,40.8894,70.47,3
1721637,Cabiao,100,PH,1631418882,93,15.2167,15.2167,77.11,5.91
2128382,Rumoi,25,JP,1631418883,77,43.9344,43.9344,72.32,9.4
2875392,Ludwigsburg,24,DE,1631418884,87,48.8973,48.8973,57.96,1.7
3164409,Vico del Gargano,93,IT,1631418885,76,41.8983,41.8983,58.46,9.08
2971336,Urrugne,0,FR,1631418886,97,43.3636,43.3636,66.99,2.3
2155386,Newtown,0,AU,1631418888,12,-33.8984,-33.8984,89.76,29.93
2795399,Hoogstraten,71,BE,1631418888,93,51.4021,51.4021,58.78,1.01
3163854,Zogno,0,IT,1631418890,75,45.7919,45.7919,67.32,4
4156404,Gainesville,100,US,1631418866,90,29.6516,29.6516,75.85,4.05
3110986,Salou,95,ES,1631418891,84,41.0766,41.0766,74.28,1.01
5703673,Elko,38,US,1631418892,37,41.0002,41.0002,69.82,5.01
5402159,Thermalito,93,US,1631418893,41,39.5113,39.5113,83.53,1.99
2475752,Tizi-n-Tleta,5,DZ,1631418894,47,36.5457,36.5457,69.55,4.43
4562366,Woodlyn,0,US,1631418896,76,39.8723,39.8723,68.95,3
3398412,Ibateguara,92,BR,1631418896,97,-8.9725,-8.9725,71.51,2.95
2475744,Tizi Ouzou,4,DZ,1631418673,47,36.7118,36.7118,71.71,4.34
1337240,Nawābganj,90,BD,1631418898,68,24.5911,24.5911,88.47,7.81
1275778,Bhusāval,99,IN,1631418601,81,21.05,21.05,80.56,7.52
2659303,Oftringen,4,CH,1631418899,94,47.3167,47.3167,60.48,1.16
922773,Kolwezi,4,CD,1631418900,49,-10.7148,-10.7148,57.81,9.19
686648,Afumaţi,0,RO,1631418901,71,44.5167,44.5167,60.98,0
2763795,Ternitz,22,AT,1631418903,76,47.7156,47.7156,62.73,4.16
6542094,Gaeta,0,IT,1631418904,61,41.2183,41.2183,68.41,4.52
5146277,Avon,54,US,1631418905,74,41.4517,41.4517,72.99,5.01
3988025,Nicolás R Casillas,26,MX,1631418906,82,20.5333,20.5333,62.96,3.31
1714821,Dimataling,100,PH,1631418907,73,7.5344,7.5344,83.55,3.53
4225346,Swainsboro,1,US,1631418907,60,32.5974,32.5974,71.49,3.44
3114710,Principality of Asturias,26,ES,1631418908,97,43.3333,43.3333,67.68,4.85
4913110,Sycamore,72,US,1631418910,83,41.9889,41.9889,77.45,1.99
1684139,Talacogon,100,PH,1631418911,94,8.4167,8.4167,78.35,1.41
2522875,Province of Trapani,0,IT,1631418911,78,37.8333,37.8333,71.78,6.58
556318,Insar,100,RU,1631418912,69,53.8653,53.8653,56.88,6.4
5887609,Boscombe,74,CA,1631418913,76,54.1528,54.1528,57.04,8.05
6357152,Moral de Calatrava,0,ES,1631418914,44,38.7919,38.7919,66.52,2.71
4047914,Villas,100,US,1631418916,82,26.5504,26.5504,80.02,1.99
7261327,Garden Home-Whitford,73,US,1631418917,62,45.464,45.464,72.01,1.01
3471796,Araporã,31,BR,1631418918,42,-18.4361,-18.4361,78.71,2.57
3874958,Puerto Natales,100,CL,1631418919,66,-51.7236,-51.7236,36.37,2.08
2659136,Prilly,9,CH,1631418921,88,46.5394,46.5394,62.73,3.67
3470428,Barrinha,74,BR,1631418923,54,-21.1936,-21.1936,73.89,3.89
4164211,Miami Shores,96,US,1631418926,72,25.8632,25.8632,85.01,4
5526805,Muleshoe,0,US,1631418927,30,34.2265,34.2265,75.15,13.06
1516048,Khovd,5,MN,1631418927,19,48.0056,48.0056,64.72,3
4726971,Sansom Park,0,US,1631418928,55,32.806,32.806,78.4,1.01
5323401,Alpine,1,US,1631418929,51,32.835,32.835,81.32,8.05
1816705,Beihai,41,CN,1631418930,65,21.4833,21.4833,88.75,1.36
4568683,Villalba,99,PR,1631418930,82,18.1272,18.1272,80.98,4.52
2657073,Arlesey,40,GB,1631418931,92,52.0071,52.0071,57.56,1.99
2953407,Bad Liebenzell,21,DE,1631418932,91,48.7667,48.7667,56.68,2.46
4890925,Elk Grove Village,1,US,1631418934,71,42.0039,42.0039,78.85,4
548982,Khvalynsk,5,RU,1631418935,53,52.4906,52.4906,55.24,5.39
3456147,Nova Lima,0,BR,1631418936,41,-19.9856,-19.9856,75.74,8.05
554840,Izhevsk,89,RU,1631418937,86,56.85,56.85,44.13,7.52
5908723,Bridgewater,83,CA,1631418939,92,44.3835,44.3835,53.22,1.99
1907225,Kawara,100,JP,1631418940,80,35.4736,35.4736,77.92,4.9
2989187,Orthez,96,FR,1631418940,91,43.4884,43.4884,63.88,2.44
543728,Kotelnikowo,100,RU,1631418941,62,47.6317,47.6317,65.05,7.78
4365387,Pikesville,0,US,1631418943,82,39.3743,39.3743,69.89,8.1
5520110,Denver City,0,US,1631418944,35,32.9646,32.9646,78.24,10.27
2743698,Zoeterwoude,90,NL,1631418945,90,52.1258,52.1258,61.02,1.99
5172387,Solon,1,US,1631418946,74,41.3898,41.3898,71.73,1.01
3181586,Breda di Piave,20,IT,1631418947,87,45.7225,45.7225,65.95,2.3
2265788,Montijo,20,PT,1631418948,93,38.7067,38.7067,69.55,3.44
2654660,Brixworth,92,GB,1631418949,91,52.3291,52.3291,57.99,5.57
3169035,Romentino,0,IT,1631418951,84,45.464,45.464,70.21,6.91
698102,Ozerne,66,UA,1631418952,70,50.1782,50.1782,53.58,1.95
7873584,Imst,5,AT,1631418953,94,47.2684,47.2684,40.12,3
2643123,Manchester,40,GB,1631418676,91,53.4809,53.4809,60.44,2.3
1787765,Yan’an,0,CN,1631418955,30,36.5989,36.5989,83.03,16.78
3505855,Esperanza,98,DO,1631418955,81,19.5847,19.5847,79.29,3
770380,Jarosław,88,PL,1631418956,73,50.0162,50.0162,51.71,3
5331575,Buena Park,1,US,1631418957,60,33.8675,33.8675,89.94,1.99
2648026,Great Sankey,100,GB,1631418958,90,53.3923,53.3923,59.27,5.14
2540512,Ouirgane,0,MA,1631418960,30,31.1777,31.1777,69.58,2.84
3470837,Barbosa Ferraz,37,BR,1631418961,92,-24.03,-24.03,70.09,3.76
733716,Aksakovo Municipality,0,BG,1631418962,63,43.25,43.25,63.1,3.44
5067114,Douglas,1,US,1631418964,71,41.3,41.3,81.14,4
3167368,Sant'Arpino,0,IT,1631418965,57,40.9595,40.9595,71.55,1.14
2525384,Capo d'Orlando,27,IT,1631418966,77,38.1435,38.1435,71.64,5.84
524712,Mozhaysk,60,RU,1631418967,87,55.5019,55.5019,55.8,4.25
3521628,Tatatila,96,MX,1631418969,94,19.6936,19.6936,53.02,3.96
488946,Staritsa,92,RU,1631418969,80,56.5075,56.5075,57.79,4.59
886763,Masvingo,0,ZW,1631418971,81,-20.0637,-20.0637,49.8,3.94
5385082,Prunedale,20,US,1631418972,86,36.7758,36.7758,70,9.22
2653138,Chipping Ongar,99,GB,1631418973,89,51.7038,51.7038,57.36,1.01
3870011,Temuco,100,CL,1631418975,91,-38.7333,-38.7333,46.17,8.43
2647101,Henley on Thames,85,GB,1631418976,89,51.5333,51.5333,56.88,4.88
2336589,Jalingo,89,NG,1631418977,96,8.8833,8.8833,73.65,3.13
3170075,Porto Recanati,31,IT,1631418979,61,43.4365,43.4365,65.25,7.36
2110556,Yamagata,20,JP,1631418980,51,38.2406,38.2406,86.65,4.61
3336585,Nesoddtangen,100,NO,1631418981,1,59.8655,59.8655,61.43,0.78
3191024,Šentrupert,25,SI,1631418982,82,45.9778,45.9778,57.18,2.35
71558,Raydah,10,YE,1631418984,48,15.8142,15.8142,69.57,0.36
1789118,Xindian,0,CN,1631418985,54,36.7975,36.7975,88.9,5.26
571306,Budënnovsk,100,RU,1631418985,64,44.7839,44.7839,63.14,9.84
3471094,Baixa Grande,2,BR,1631418987,96,-11.9597,-11.9597,65.88,3.91
4982044,Waldoboro,22,US,1631418988,96,44.0954,44.0954,63.45,6.24
2660989,Dornach,0,CH,1631418989,92,47.4804,47.4804,60.17,0
2641589,Newquay,87,GB,1631418990,82,50.4132,50.4132,57.22,1.86
4367035,Robinwood,5,US,1631418992,91,39.637,39.637,65.95,5.53
4934500,Danvers,0,US,1631418993,83,42.5751,42.5751,66.02,1.99
570427,Buzuluk,15,RU,1631418994,61,52.7807,52.7807,51.64,4.07
5110302,Brooklyn,1,US,1631418995,70,40.6501,40.6501,71.08,1.99
2219235,Ubari,0,LY,1631418996,19,26.5921,26.5921,82.47,9.93
3128760,Barcelona,20,ES,1631418997,86,41.3888,41.3888,73.8,3
4362716,Montgomery,2,US,1631419000,85,39.1501,39.1501,69.46,1.99
2070866,Gingin,0,AU,1631419001,48,-31.35,-31.35,61.18,8.25
1704968,Lupon,100,PH,1631419002,85,6.8981,6.8981,86.02,2.28
5729080,Grants Pass,1,US,1631419002,31,42.439,42.439,77.59,9.22
2522098,Alcoy,3,ES,1631419003,69,38.7054,38.7054,68.61,2.33
671832,Olteniţa,0,RO,1631418922,57,44.0833,44.0833,61.74,0.81
3448453,São Miguel do Iguaçu,0,BR,1631419004,77,-25.3481,-25.3481,67.08,5.08
4162539,Lockhart,100,US,1631419006,77,28.6194,28.6194,78.12,4.18
3928679,Sicuani,8,PE,1631419008,67,-14.2694,-14.2694,48.36,4.03
2639888,Princes Risborough,85,GB,1631419009,87,51.7255,51.7255,56.75,4
2853961,Pfreimd,88,DE,1631419010,95,49.4925,49.4925,61.03,1.16
4676032,Brady,0,US,1631419012,35,31.1352,31.1352,73.85,5.75
5802570,Marysville,99,US,1631419013,85,48.0518,48.0518,67.44,1.01
2895638,Isny,12,DE,1631419014,97,47.7,47.7,57.61,2.08
1691862,Rapu-Rapu,99,PH,1631419015,70,13.1866,13.1866,85.28,7.34
3390700,Regeneração,81,BR,1631419015,25,-6.2378,-6.2378,83.97,4.9
1217262,G`uzor,0,UZ,1631419017,14,38.6208,38.6208,59.05,0.87
5436363,Rifle,40,US,1631419017,40,39.5347,39.5347,70.39,11.5
5188075,Coolbaugh,4,US,1631419018,90,41.0627,41.0627,64.11,4.16
4338012,Prairieville,30,US,1631419019,84,30.303,30.303,76.95,5.82
3394605,Monte Alegre,37,BR,1631419020,66,-2.0078,-2.0078,79.81,6.85
3176377,Gallicano nel Lazio,2,IT,1631418980,65,41.8688,41.8688,67.73,4.09
557906,Gur'yevsk,90,RU,1631419022,94,54.7732,54.7732,64.18,4.47
5443948,Wheat Ridge,67,US,1631419023,33,39.7661,39.7661,82.99,8.01
2063042,Port Hedland,0,AU,1631419024,45,-20.3167,-20.3167,84.25,13.8
5101405,Morris,1,US,1631419024,83,40.8334,40.8334,68.04,0
2845027,Rosenfeld,29,DE,1631418801,93,48.2864,48.2864,55.11,0.76
3522484,Ocosingo,100,MX,1631419025,100,17.0667,17.0667,64,1.16
4838652,Milford,1,US,1631418542,81,41.2223,41.2223,73.44,1.01
4912691,Streamwood,1,US,1631419027,73,42.0256,42.0256,79.23,0
3450982,Rodeio,83,BR,1631419028,96,-26.9228,-26.9228,62.71,1.72
1280013,Shengping,98,CN,1631419030,70,28.511,28.511,41.77,3.47
2831852,Sinzig,75,DE,1631419030,97,50.55,50.55,61.11,2.13
2524870,Custonaci,0,IT,1631419031,75,38.073,38.073,71.19,6.29
2038154,Yangfang,100,CN,1631419032,92,40.1385,40.1385,74.98,3.02
2970110,Vendôme,24,FR,1631419033,86,47.8,47.8,55.96,6.2
3170070,Porto Tolle,22,IT,1631419034,74,44.9497,44.9497,63.1,5.03
1808181,Hezuo,0,CN,1631419035,50,34.9856,34.9856,64.62,4.29
2939658,Cuxhaven,75,DE,1631418952,100,53.8718,53.8718,62.96,8.05
6552998,Bakum,100,DE,1631419036,92,52.7321,52.7321,63.3,1.99
2953504,Baden-Baden,90,DE,1631419038,96,48.75,48.75,56.19,2.3
2646317,Hythe,86,GB,1631419040,85,50.86,50.86,55.15,1.01
2517820,Estepa,0,ES,1631419041,49,37.2926,37.2926,67.8,2.37
1734586,Taiping,100,MY,1631419043,94,4.85,4.85,84.4,1.19
3530937,Chicoloapan,100,MX,1631419044,89,19.4167,19.4167,57.18,3.96
5128904,North Bellmore,0,US,1631419044,80,40.6915,40.6915,71.1,7
2657896,Zurich,75,CH,1631418880,94,47.3667,47.3667,60.73,1.14
932505,Maseru,0,LS,1631419046,43,-29.3167,-29.3167,52.74,3
2636531,Sunderland,99,GB,1631419047,87,54.9047,54.9047,52.18,1.99
1627549,Serang,97,ID,1631419044,71,-6.1149,-6.1149,85.77,3.8
1730737,Angeles City,100,PH,1631418963,93,15.15,15.15,79.59,4.29
3526601,Pinal de Amoles,61,MX,1631419050,92,21.1356,21.1356,51.69,2.17
1855753,Ena,100,JP,1631419050,70,35.4498,35.4498,76.42,1.92
2831948,Sindelfingen,0,DE,1631418921,94,48.7,48.7,55.98,1.14
4074736,Marshall,1,US,1631419052,75,34.3834,34.3834,71.35,3.44
1707951,Rancheria Payau,100,PH,1631419052,66,7.8541,7.8541,84.22,3
5495292,Truth or Consequences,11,US,1631419053,27,33.1284,33.1284,81.16,6.02
3855114,General Fernández Oro,0,AR,1631419054,36,-38.953,-38.953,62.74,10.36
4916698,Willow Springs,96,US,1631419055,71,41.7409,41.7409,79.86,7.9
5401297,Tehachapi,0,US,1631419056,42,35.1322,35.1322,80.01,4
731549,Gabrovo,13,BG,1631418953,49,42.8747,42.8747,50.63,1.25
3467012,Carangola,97,BR,1631419057,90,-20.7331,-20.7331,70.36,2.59
1820491,Kuala Belait,91,BN,1631419059,57,4.5833,4.5833,89.76,6.17
5112035,Centereach,1,US,1631419059,82,40.8584,40.8584,70.88,1.01
2941403,Burgebrach,98,DE,1631419060,96,49.8333,49.8333,61.66,1.7
3099424,Gdynia,90,PL,1631418915,94,54.5189,54.5189,62.85,4.61
1703101,Malangas,100,PH,1631419061,68,7.6303,7.6303,86.07,5.44
4835806,Hartford,4,US,1631419062,93,41.7668,41.7668,67.75,4.68
3183170,Altavilla Silentina,2,IT,1631419063,84,40.5313,40.5313,68.29,6.62
5711224,Amity,40,US,1631419064,59,45.1157,45.1157,72.34,4.7
1719395,Can-Avid,100,PH,1631419065,67,11.9953,11.9953,86.58,8.28
701075,Myrhorod,93,UA,1631419065,60,49.9685,49.9685,60.37,4.81
1712627,Guagua,100,PH,1631419066,92,14.9653,14.9653,80.69,3.85
2637958,Shipley,83,GB,1631419067,76,53.8333,53.8333,58.77,6.42
3130760,Aizoáin,20,ES,1631419068,92,42.85,42.85,61.79,0
4921100,Hammond,1,US,1631419070,78,41.5834,41.5834,79.99,1.99
2644577,Leven,99,GB,1631419071,90,56.2,56.2,53.85,1.99
2227402,Meïganga,81,CM,1631419072,98,6.5167,6.5167,63.3,0.31
2549076,Ezzhiliga,9,MA,1631419074,43,33.3,33.3,73.15,3.6
3221012,Clausthal,99,DE,1631419075,94,51.8043,51.8043,58.12,4.27
2513703,Moncada,40,ES,1631419076,92,39.5456,39.5456,73.49,3
6556319,Oberhaching,8,DE,1631419078,95,48.0333,48.0333,55.96,2.59
714772,Tiszafüred,0,HU,1631419079,52,47.6167,47.6167,53.58,4.07
7026886,Sai Mai,20,TH,1631418804,72,13.9207,13.9207,87.98,13.8
2268339,Faro,0,PT,1631419081,94,37.0194,37.0194,65.98,2.3
700646,Velyki Luchky,96,UA,1631419082,68,48.4188,48.4188,55.36,2.75
6318165,Rio Preto da Eva,59,BR,1631419083,85,-2.6994,-2.6994,80.98,2.71
